[
    { "Name": "Baiyappanahalli", "Latitude": 12.9784, "Longitude": 77.6408 },
    { "Name": "Swami Vivekananda Road", "Latitude": 12.9787, "Longitude": 77.6289 },
    { "Name": "Indiranagar", "Latitude": 12.9780, "Longitude": 77.6409 },
    { "Name": "Halasuru", "Latitude": 12.9738, "Longitude": 77.6216 },
    { "Name": "Trinity", "Latitude": 12.9730, "Longitude": 77.6170 },
    { "Name": "MG Road", "Latitude": 12.9756, "Longitude": 77.6066 },
    { "Name": "Cubbon Park", "Latitude": 12.9784, "Longitude": 77.5955 },
    { "Name": "Vidhana Soudha", "Latitude": 12.9796, "Longitude": 77.5907 },
    { "Name": "Sir M. Visveshwaraya Station", "Latitude": 12.9716, "Longitude": 77.5844 },
    { "Name": "Kempegowda Station", "Latitude": 12.9763, "Longitude": 77.5704 },
    { "Name": "Magadi Road", "Latitude": 12.9772, "Longitude": 77.5558 },
    { "Name": "Hosahalli", "Latitude": 12.9749, "Longitude": 77.5451 },
    { "Name": "Vijayanagar", "Latitude": 12.9698, "Longitude": 77.5360 },
    { "Name": "Attiguppe", "Latitude": 12.9593, "Longitude": 77.5286 },
    { "Name": "Deepanjali Nagar", "Latitude": 12.9486, "Longitude": 77.5149 },
    { "Name": "Mysore Road", "Latitude": 12.9435, "Longitude": 77.5047 },
    { "Name": "Nayandahalli", "Latitude": 12.9354, "Longitude": 77.5124 },
    { "Name": "Rajarajeshwari Nagar", "Latitude": 12.9350, "Longitude": 77.4980 },
    { "Name": "Jnanabharathi", "Latitude": 12.9324, "Longitude": 77.4858 },
    { "Name": "Pattanagere", "Latitude": 12.9291, "Longitude": 77.4763 },
    { "Name": "Kengeri Bus Terminal", "Latitude": 12.9187, "Longitude": 77.4596 },
    { "Name": "Nagasandra", "Latitude": 13.0720, "Longitude": 77.5142 },
    { "Name": "Dasarahalli", "Latitude": 13.0646, "Longitude": 77.5208 },
    { "Name": "Jalahalli", "Latitude": 13.0526, "Longitude": 77.5283 },
    { "Name": "Peenya Industry", "Latitude": 13.0436, "Longitude": 77.5351 },
    { "Name": "Peenya", "Latitude": 13.0361, "Longitude": 77.5416 },
    { "Name": "Yeshwanthpur Industry", "Latitude": 13.0285, "Longitude": 77.5505 },
    { "Name": "Yeshwanthpur", "Latitude": 13.0185, "Longitude": 77.5563 },
    { "Name": "Sandal Soap Factory", "Latitude": 13.0105, "Longitude": 77.5631 },
    { "Name": "Mahalakshmi", "Latitude": 13.0027, "Longitude": 77.5700 },
    { "Name": "Rajajinagar", "Latitude": 12.9952, "Longitude": 77.5746 },
    { "Name": "Kuvempu Road", "Latitude": 12.9890, "Longitude": 77.5794 },
    { "Name": "Srirampura", "Latitude": 12.9836, "Longitude": 77.5835 },
    { "Name": "Sampige Road", "Latitude": 12.9784, "Longitude": 77.5907 },
    { "Name": "National College", "Latitude": 12.9416, "Longitude": 77.5748 },
    { "Name": "Lalbagh", "Latitude": 12.9369, "Longitude": 77.5850 },
    { "Name": "South End Circle", "Latitude": 12.9324, "Longitude": 77.5865 },
    { "Name": "Jayanagar", "Latitude": 12.9250, "Longitude": 77.5838 },
    { "Name": "Rashtreeya Vidyalaya Road", "Latitude": 12.9200, "Longitude": 77.5832 },
    { "Name": "Banashankari", "Latitude": 12.9121, "Longitude": 77.5706 },
    { "Name": "Jayaprakash Nagar", "Latitude": 12.9060, "Longitude": 77.5639 },
    { "Name": "Yelachenahalli", "Latitude": 12.8882, "Longitude": 77.5680 },
    { "Name": "Konanakunte Cross", "Latitude": 12.8814, "Longitude": 77.5683 },
    { "Name": "Doddakallasandra", "Latitude": 12.8754, "Longitude": 77.5649 },
    { "Name": "Vajrahalli", "Latitude": 12.8696, "Longitude": 77.5616 },
    { "Name": "Thalaghattapura", "Latitude": 12.8625, "Longitude": 77.5568 },
    { "Name": "Anjanapura", "Latitude": 12.8550, "Longitude": 77.5518 },
    { "Name": "Silk Institute", "Latitude": 12.8494, "Longitude": 77.5474 },
    { "Name": "K.R. Market", "Latitude": 12.961353, "Longitude": 77.574571 },
    { "Name": "National College", "Latitude":12.950548, "Longitude": 77.573712 }
]
